[
    {
        "name": "ניר עם",
        "lat": 34.57894442289457,
        "lon": 31.519784152992173,
        "description": "סיפורה של ענבל ליברמן, הרבש״צית שהצילה את הקיבוץ"
    },
    {
        "name": "אנדרטת הגבורה והזכרון בשדרות",
        "lat": 34.59196542350225,
        "lon": 31.522616841214386,
        "description": "נכיר את השוטרות שנפלו בקרב על התחנה"
    },
    {
        "name": "קפה קולטורה",
        "lat": 34.59676121301221,
        "lon": 31.52440016908118,
        "description": "קפה שמופעל על ידי ניצול מכפר עזה, ששירת במילואים לאורך כל מלחמת חרבות ברזל"
    },
    {   
        "name": "יד האשה העברייה הלוחמת",
        "lat": 34.62789126768893,
        "lon": 31.736733843168576,
        "description": "לזכרה של מירה בן ארי, אלחוטנית במלחמת העצמאות שהצילה את הקיבוץ ואיבדה את חייה"
    },
    {
        "name": "אנדרטת התצפיתניות",
        "lat": 34.52478729651611,
        "lon": 31.46335969134308,
        "description": "לזכר התצפיתניות שנפלו במוצב נחל עוז במלחמת חרבות ברזל"
    },
    {
        "name": "נגריית עיונה",
        "lat": 34.492504067678894,
        "lon": 31.424652678451142,
        "description": "לזכרה של יונת אור שנרצחה בביתה בבארי בשבעה באוקטובר"
    }
]

